{
    "type": "FeatureCollection",
    "features": [
        {
            "type": "Feature",
            "properties": {
                "Name": "Claiborne Corridor",
                "Location": "New Orleans, USA",
                "OpeningYr": 2018
            },
            "geometry": {
                "coordinates": [
                    -90.07191596756387,
                    29.965692184287605
                ],
                "type": "Point"
            }
        },
        {
            "type": "Feature",
            "properties": {
                "Name": "The Bentway",
                "Location": "Toronto, Canada",
                "OpeningYr": 2018
            },
            "geometry": {
                "coordinates": [
                    -79.4051007811483,
                    43.63775621668993
                ],
                "type": "Point"
            }
        },
        {
            "type": "Feature",
            "properties": {
                "Name": "One Green Mile",
                "Location": "Mumbai, India",
                "OpeningYr": 2022
            },
            "geometry": {
                "coordinates": [
                    72.83477545398128,
                    19.01071888913073
                ],
                "type": "Point"
            }
        },
        {
            "type": "Feature",
            "properties": {
                "Name": "A8ernA",
                "Location": "Zaanstad, the Netherlands",
                "OpeningYr": 2005
            },
            "geometry": {
                "coordinates": [
                    4.808717845274515,
                    52.46382508622506
                ],
                "type": "Point"
            }
        },
        {
            "type": "Feature",
            "properties": {
                "Name": "Taman Film",
                "Location": "Bandung, Indonesia",
                "OpeningYr": 2014
            },
            "geometry": {
                "coordinates": [
                    107.60804322256439,
                    -6.898315507597857
                ],
                "type": "Point"
            }
        }
    ]
}